{
  "rip_date": "2025-12-30",
  "source": "https://www.saime.gob.ve/wp-json/",
  "summary": {
    "total_offices": 100,
    "total_posts": 23,
    "total_media_files": 98
  },
  "operational_programs": {
    "ruta_pescadores": {
      "name": "Fisheries Route (Ruta Pescadores)",
      "cedulas_issued": 7257,
      "target": "Fishermen and aquaculturists",
      "states": [
        "Apure",
        "La Guaira",
        "Guarico",
        "Bolivar",
        "Nueva Esparta"
      ],
      "description": "Mobile ID issuance for fishing sector workers"
    },
    "ruta_indigena": {
      "name": "Indigenous Route",
      "cedulas_issued": 15511,
      "target": "Indigenous communities",
      "description": "ID documents for native peoples"
    },
    "ruta_manuelita_saenz": {
      "name": "Manuelita Saenz Route",
      "workers_served": 56785,
      "target": "Workers at their workplaces",
      "description": "Mobile ID services at government offices"
    },
    "pequenas_huellas": {
      "name": "Small Steps, Big Rights",
      "children_served": 28000,
      "target": "Children - first-time IDs",
      "description": "School-based ID issuance for minors"
    },
    "plaza_caracas_2025": {
      "name": "Plaza Caracas Office",
      "users_processed": 127415,
      "description": "Main Caracas processing center"
    },
    "nov_2025_drive": {
      "name": "November 2025 National Drive",
      "cedulas_renewed": 34716,
      "duration_days": 4,
      "description": "National renewal campaign without appointments"
    }
  },
  "offices": [
    {
      "name": "6. Barquisimeto II – EL Ujano",
      "address": "Avenida Hernan Garmendia. Sector El Ujano.",
      "city": "Barquisimeto",
      "region": "Estado Lara",
      "latitude": "10.084358083961684",
      "longitude": "-69.2758332732111",
      "zip": "3001"
    },
    {
      "name": "154. Jacinto Lara",
      "address": "Avenida Lara con Avenida Bracamonte. Barquisimeto Estado Lara.",
      "city": "Barquisimeto",
      "region": "Estado Lara",
      "latitude": "10.065392281990071",
      "longitude": "-69.29310217470979",
      "zip": "3001"
    },
    {
      "name": "130. Catia La Mar",
      "address": "Av. El Ejercito. Centro Comercial Paseo La Marina. terminal de pasajero LA Zorra. PB.",
      "city": "Catia La Mar",
      "region": "Estado La Güaira",
      "latitude": "10.600627149963803",
      "longitude": "-67.04069043052708",
      "zip": "1162"
    },
    {
      "name": "166. Caraballeda",
      "address": "Av. La Costanera entre Caraballeda y La Calle Osorio Antigua CANTV.",
      "city": "Caraballeda",
      "region": "Estado La Güaira",
      "latitude": "10.618286992032592",
      "longitude": "-66.85237463052698",
      "zip": "1165"
    },
    {
      "name": "002. La Güaira – Vargas I",
      "address": "Terminal de pasajero Carua. 2do Piso.",
      "city": "La Güaira",
      "region": "Estado La Güaira",
      "latitude": "10.594923133562613",
      "longitude": "-66.95157140005884",
      "zip": "1160"
    },
    {
      "name": "020. Valle de la PasCúa",
      "address": "Calle Las Flores Cruce con calle martillo. Casco Central. Edificio Maria Alejandra 2do. Piso.",
      "city": "Valle de la PasCúa",
      "region": "",
      "latitude": "9.210427324447629",
      "longitude": "-66.00655884587916",
      "zip": "2350"
    },
    {
      "name": "189. Tucupido",
      "address": "Calle Gabante Sector Mandilito / Antigua sede del Hospital.",
      "city": "Tucupido",
      "region": "",
      "latitude": "9.278881236807178",
      "longitude": "-65.77557933053562",
      "zip": "2322"
    },
    {
      "name": "102. Calabozo",
      "address": "Calle 13 entre Carrera 11/12 diagonal al Banco BicentenaRío.",
      "city": "Calabozo",
      "region": "",
      "latitude": "8.925928070427439",
      "longitude": "-67.42851730355228",
      "zip": "2306"
    },
    {
      "name": "101. Zaraza",
      "address": "Calle Troconis con calle Higuerote. Centro Comercial La Tarragona Local 1.",
      "city": "Zaraza",
      "region": "",
      "latitude": "9.348744390161722",
      "longitude": "-65.32219950355008",
      "zip": "2332"
    },
    {
      "name": "026.. San Juan de Los Morros",
      "address": "Av. Fuerzas Armadas al frente del destacamento 28 de la GNB. Edificio Saime.",
      "city": "San Juan de los Morros",
      "region": "",
      "latitude": "9.915484279079996",
      "longitude": "-67.37370295936755",
      "zip": "2301"
    },
    {
      "name": "172. Mene de Mauroa",
      "address": "Av.Principal de Mene Mauroa Frente a la Plaza Bol ívar.",
      "city": "Mene de Mauroa",
      "region": "",
      "latitude": "10.681460591193153",
      "longitude": "-71.03615531703393",
      "zip": "4122"
    },
    {
      "name": "195. Dabajuro",
      "address": "Calle Victor Marin Camacho. Con Prolongacion Calle Creole. al lado del estadio municipal.",
      "city": "Dabajuro",
      "region": "",
      "latitude": "11.02360506843693",
      "longitude": "-70.68176774771781",
      "zip": "4104"
    },
    {
      "name": "210. Tucacas",
      "address": "",
      "city": "Tucacas",
      "region": "",
      "latitude": "10.757508614617828",
      "longitude": "-68.32499619004808",
      "zip": "2055"
    },
    {
      "name": "79. Mercado Turistico",
      "address": "Av. Principal del Antiguo Aeropuerto. Centro Comercial Mercado Turistico. Municipio Carirubana.",
      "city": "Punto Fijo",
      "region": "",
      "latitude": "11.717892217079683",
      "longitude": "-70.18959880949973",
      "zip": "4102"
    },
    {
      "name": "14. La Vela de Coro",
      "address": "Av. Generalisimo Francisco de -miranda. Paseo Las Banderas. Sector Leon Colina.",
      "city": "La Vela de Coro",
      "region": "",
      "latitude": "11.454137465112114",
      "longitude": "-69.57495687655015",
      "zip": "4160"
    },
    {
      "name": "204. IPSFA",
      "address": "",
      "city": "Caracas",
      "region": "Distrito Capital",
      "latitude": "10.47363212588266",
      "longitude": "-66.89555285695668",
      "zip": "1040"
    },
    {
      "name": "165. TSJ",
      "address": "Final Avenida Baralt. Esquina \"Dos Pilitas\". Edif. Tribunal Supremo de Justicia. Caracas. Distrito Capital.",
      "city": "Caracas",
      "region": "Distrito Capital",
      "latitude": "10.517479877686151",
      "longitude": "-66.91518506827983",
      "zip": "1010"
    },
    {
      "name": "184. GNB El Paraíso",
      "address": "",
      "city": "Caracas",
      "region": "Distrito Capital",
      "latitude": "10.493713677616853",
      "longitude": "-66.9295722170352",
      "zip": "1020"
    },
    {
      "name": "053. Coche",
      "address": "Edif. Anzoátegui. C.C. Coche. Piso 3. a la salida de la Est. del Metro. Av. Intercomunal de El Valle. Caracas.",
      "city": "Caracas",
      "region": "Distrito Capital",
      "latitude": "10.448090661577018",
      "longitude": "-66.9239681323787",
      "zip": "1090"
    },
    {
      "name": "072. 23 de Enero",
      "address": "",
      "city": "Caracas",
      "region": "Distrito Capital",
      "latitude": "10.509160069309688",
      "longitude": "-66.93115281888564",
      "zip": "1030"
    },
    {
      "name": "071. CariCúao",
      "address": "Av. La Hacienda. UD 5. Parque Zoologico de CariCúao. Caracas. Distrito Capital.",
      "city": "Caracas",
      "region": "Distrito Capital",
      "latitude": "10.43271036768719",
      "longitude": "-66.96618544772195",
      "zip": "1000"
    },
    {
      "name": "084. Defensa Pública",
      "address": "Av. Norte del boulevard Pantenón. EDF Defensa Pública. Caracas. Distrito Capital.",
      "city": "Caracas",
      "region": "Distrito Capital",
      "latitude": "10.509619707888067",
      "longitude": "-66.91371228638357",
      "zip": "1010"
    },
    {
      "name": "025. Catia",
      "address": "Av. 5 entre Calle Argentina y Colombia. Catia. Caracas. Distrito Capital.",
      "city": "Caracas",
      "region": "Distrito Capital",
      "latitude": "10.510311567376213",
      "longitude": "-66.9481560077147",
      "zip": "1030"
    },
    {
      "name": "037. Propatria",
      "address": "Av. Principal de Propatria. CC Propatria. Nivel 3. Local B-5. Propatria. Caracas. Distrito Capital.",
      "city": "Caracas",
      "region": "Distrito Capital",
      "latitude": "10.503866584409636",
      "longitude": "-66.9528336000589",
      "zip": "1030"
    },
    {
      "name": "077. IND",
      "address": "Av Teheran. Montalban. Edificio Instituto Nacional de Deporte. Caracas 1020. Distrito Capital.",
      "city": "Caracas",
      "region": "Distrito Capital",
      "latitude": "10.474296441322087",
      "longitude": "-66.94771590539334",
      "zip": "1020"
    },
    {
      "name": "216. Simon Bol ívar",
      "address": "Av. Baralt Centro Simon Bol ívar",
      "city": "Caracas",
      "region": "Distrito Capital",
      "latitude": "10.50363252364934",
      "longitude": "-66.91774407470677",
      "zip": "1010"
    },
    {
      "name": "065. Fuerte Tiuna",
      "address": "Av. Los Proceres. FuerteTiuna. Parroquia El Valle. Caracas. Distrito Capital. MinisteRío e la defensa",
      "city": "Caracas",
      "region": "Distrito Capital",
      "latitude": "10.460796776789927",
      "longitude": "-66.90010312318446",
      "zip": "1090"
    },
    {
      "name": "067. Parque Central",
      "address": "",
      "city": "Caracas",
      "region": "Distrito Capital",
      "latitude": "10.498114722368374",
      "longitude": "-66.89974237687005",
      "zip": "1010"
    },
    {
      "name": "090. Cotiza",
      "address": "Avenida Fuerzas Armadas. Esquina San José. Edificio gubernamental. Caracas.Distrito Capital.",
      "city": "Caracas",
      "region": "Distrito Capital",
      "latitude": "10.514837205782216",
      "longitude": "-66.90743527994486",
      "zip": "1010"
    },
    {
      "name": "054. San Bernardino",
      "address": "Residencias Parque Estrella. PB. Local PB-1. Av. Gamboa. Caracas.Distrito Capital.",
      "city": "Caracas",
      "region": "Distrito Capital",
      "latitude": "10.50883070544218",
      "longitude": "-66.90183891124798",
      "zip": "1010"
    },
    {
      "name": "152. Plaza Caracas",
      "address": "",
      "city": "Caracas",
      "region": "Distrito Capital",
      "latitude": "10.503128800865792",
      "longitude": "-66.91589639327717",
      "zip": "1010"
    },
    {
      "name": "146. Tucupita",
      "address": "Terminal de pasajero. av. 19 de abril.",
      "city": "Tucupita",
      "region": "Delta Amacuro",
      "latitude": "9.051648352786286",
      "longitude": "-62.04217422105656",
      "zip": "6401"
    },
    {
      "name": "137. Tinaquillo",
      "address": "Zona Industrial de Tinaquillo al lado del Comando de la Guardia.",
      "city": "Tinaquillo",
      "region": "Estado Cojedes",
      "latitude": "9.920361543939247",
      "longitude": "-68.29008679091025",
      "zip": "2209"
    },
    {
      "name": "007. San Carlos",
      "address": "Av. Universidad. sector Los Mangos. al lado de la aldea Bol ívariana",
      "city": "San Carlos",
      "region": "Estado Cojedes",
      "latitude": "9.673234698812935",
      "longitude": "-68.58039479093829",
      "zip": "2201"
    },
    {
      "name": "099. La Noria",
      "address": "",
      "city": "Puerto Cabello",
      "region": "Estado Carabobo",
      "latitude": "10.470119056375482",
      "longitude": "-68.01872932946974",
      "zip": ""
    },
    {
      "name": "085. Los Guayos",
      "address": "Av. Bolívar . Edificio Mencey. PB. Los Guayos.",
      "city": "Los Guayos",
      "region": "Estado Carabobo",
      "latitude": "10.188774134315196",
      "longitude": "-67.94232519881733",
      "zip": "2011"
    },
    {
      "name": "105. Vicente Salias",
      "address": "Municipio Valmore Rodríguez. Parroquia La Victoria. Av. Principal frente al terminal de pasajero del municipio.",
      "city": "Valencia",
      "region": "Estado Carabobo",
      "latitude": "10.221607755390966",
      "longitude": "-68.00965366812625",
      "zip": "2001"
    },
    {
      "name": "023. Valencia I – Los Colorados",
      "address": "Av. Carabobo con Montilla. Edificio HCH. Municipio San José.",
      "city": "Valencia",
      "region": "Estado Carabobo",
      "latitude": "10.19357534163234",
      "longitude": "-68.00770740622151",
      "zip": ""
    },
    {
      "name": "209. Mariara",
      "address": "Av. Carabobo. Sector La Haciendita. calle Santos Michelena.",
      "city": "Mariara",
      "region": "Estado Carabobo",
      "latitude": "10.29153098652762",
      "longitude": "-67.71840991414837",
      "zip": "2017"
    },
    {
      "name": "106. Arturo Michelena",
      "address": "C.C Big Low Center. Nave H. Local 7 y 8. Parroquia San Blas.",
      "city": "Valencia",
      "region": "Estado Carabobo",
      "latitude": "10.474196260426908",
      "longitude": "-67.970629339686",
      "zip": "2006"
    },
    {
      "name": "126. Ciudad Bolívar",
      "address": "Av. Circunvalacion. Edificio Centro Cultural Bol ívar. Vista Hermosa.",
      "city": "Ciudad Bol ívar",
      "region": "Estado Bol ívar",
      "latitude": "8.107546508099343",
      "longitude": "-63.5328197910899",
      "zip": "8001"
    },
    {
      "name": "083. Guasipati",
      "address": "Av. Urdaneta al lado del Juzgado. Municipio Roscio.",
      "city": "Guasipati",
      "region": "Estado Bol ívar",
      "latitude": "7.480826232690667",
      "longitude": "-61.895587845107364",
      "zip": "8055"
    },
    {
      "name": "113. Puerto Ordaz",
      "address": "",
      "city": "Puerto Ordaz",
      "region": "Estado Bol ívar",
      "latitude": "8.28226671145213",
      "longitude": "-62.77444954155732",
      "zip": "8050"
    },
    {
      "name": "012. San Félix",
      "address": "Avenida Dalla Costa. Centro Comercial Icabaru. PB.",
      "city": "San Félix",
      "region": "Estado Bol ívar",
      "latitude": "8.342631669902751",
      "longitude": "-62.680029645039454",
      "zip": "8051"
    },
    {
      "name": "082. Upata",
      "address": "Calle Ruiz Pineda S/N frente Bloquera El Patio.",
      "city": "Upata",
      "region": "Estado Bol ívar",
      "latitude": "8.01130140356775",
      "longitude": "-62.39943879109778",
      "zip": "8052"
    },
    {
      "name": "183. Socopo",
      "address": "Sector Barrio Obrero calle 11 entre 5 y 6.",
      "city": "Socopo",
      "region": "Estado Barinas",
      "latitude": "8.23330538405597",
      "longitude": "-70.818055889632",
      "zip": "5216"
    },
    {
      "name": "223. Santa BÁrbara",
      "address": "",
      "city": "Santa BÁrbara",
      "region": "Estado Barinas",
      "latitude": "7.822328225319658",
      "longitude": "-71.1867463297386",
      "zip": "5210"
    },
    {
      "name": "187. Barinas II",
      "address": "",
      "city": "Barinas",
      "region": "Estado Barinas",
      "latitude": "8.655642234809617",
      "longitude": "-70.24709442172905",
      "zip": "5201"
    },
    {
      "name": "192. Cagua II",
      "address": "Centro Comercial Multicentro. 2do Piso. Local 40.41.42. calle Bolívar Cruce con Rondon. Frente Casa de la Cultura.",
      "city": "Cagua",
      "region": "Estado Aragua",
      "latitude": "10.187263754234086",
      "longitude": "-67.46189450195922",
      "zip": "2112"
    },
    {
      "name": "125. José Félix Ribas",
      "address": "La Victoria- Calle Dr Carias. Condominio La Fuente. Local L4 PB.",
      "city": "La Victoria",
      "region": "Estado Aragua",
      "latitude": "10.18729890159254",
      "longitude": "-67.46196369262576",
      "zip": "2121"
    },
    {
      "name": "145. San Sebastián de los Reyes",
      "address": "Calle Bolívar cruce con Guaicaipuro. Antigua sede de la Biblioteca Virtual.",
      "city": "San Sebastián",
      "region": "Estado Aragua",
      "latitude": "10.2304801336677",
      "longitude": "-67.3367497216184",
      "zip": "2340"
    },
    {
      "name": "117. Santa Rita",
      "address": "Av. Generalísimo Francisco de Miranda. Sector Santa Rita. Sede de la Alcaldía Francisco Linares Alcántara.",
      "city": "Santa Rita",
      "region": "Estado Aragua",
      "latitude": "10.19732351500025",
      "longitude": "-67.5735114654003",
      "zip": "2103"
    },
    {
      "name": "039. La Victoria",
      "address": "Av. Victoria. Centro Comercial El Cilento. Piso 03. Oficina 36.",
      "city": "La Victoria",
      "region": "Estado Aragua",
      "latitude": "10.2273010593607",
      "longitude": "-67.3237961129536",
      "zip": "2121"
    },
    {
      "name": "149. José Antonio Anzoátegui",
      "address": "Calle Guaraguao. Edificio Puerto Oriental.",
      "city": "Puerto La Cruz",
      "region": "Estado Anzoátegui",
      "latitude": "10.219089345432",
      "longitude": "-64.6369300767739",
      "zip": "6001"
    },
    {
      "name": "207. Guanipa",
      "address": "Av. Roma. Sector Vista al Sol.",
      "city": "El Tigre",
      "region": "Estado Anzoátegui",
      "latitude": "8.896093447858",
      "longitude": "-64.1759880138265",
      "zip": "6054"
    },
    {
      "name": "169. Trailer Barcelona",
      "address": "Parroquia San Cristóbal. Cisrcunscripción Militar Zodi 51.",
      "city": "Barcelona",
      "region": "Estado Anzoátegui",
      "latitude": "10.143351248186",
      "longitude": "-64.6853976067611",
      "zip": "6050"
    },
    {
      "name": "160. Anaco",
      "address": "Av. José Antonio Anzoátegui. Centro Comercial Anaco.",
      "city": "Anaco",
      "region": "Estado Anzoátegui",
      "latitude": "9.43392045063011",
      "longitude": "-64.4637245830843",
      "zip": "6003"
    },
    {
      "name": "114. Puerto Ayacucho",
      "address": "Av. Aguerrevere. Barrio Luisa Caseres. Frente a la escuela Gabriela Mistral.",
      "city": "Puerto Ayacucho",
      "region": "Estado Amazonas",
      "latitude": "5.665564312401557",
      "longitude": "-67.63149837589266",
      "zip": "7101"
    },
    {
      "name": "213. Tumeremo",
      "address": "Avenida Carabobo, Edif. La Prefectura PB, Frente a la Plaza Bolivar.",
      "city": "Caicara",
      "region": "Bolívar",
      "latitude": "7.306753521601759",
      "longitude": "-61.50400804464402",
      "zip": "8057"
    },
    {
      "name": "206. Sabaneta",
      "address": "Urb. El Rosario, calle 1, con callejon 2, edificio SAIME.",
      "city": "Sabaneta",
      "region": "Barinas",
      "latitude": "8.757686832141575",
      "longitude": "-69.93524838262316",
      "zip": ""
    },
    {
      "name": "005. Maracay. El Limón",
      "address": "Av.Universidad - El Limón, al lado del INTT",
      "city": "Maracay",
      "region": "Aragua",
      "latitude": "10.285129380263857",
      "longitude": "-67.6219532443634",
      "zip": "2105"
    },
    {
      "name": "35. San Fernando",
      "address": "Edif. Carrusel, Piso 2, frente a la Estatua de San Fernando",
      "city": "San Fernando de Apure",
      "region": "Apure",
      "latitude": "7.884530778370422",
      "longitude": "-67.47052022925833",
      "zip": "7001"
    },
    {
      "name": "147-Píritu.",
      "address": "Calle Bolivar, Centro Civico Doña Calea Mata.",
      "city": "Píritu",
      "region": "Estado Anzoátegui",
      "latitude": "10.040056247579647",
      "longitude": "-65.03042865180028",
      "zip": "6022"
    },
    {
      "name": "017. Juan Antonio Sotillo",
      "address": "Av. 5 de Julio, Edf. Oriente, Piso 2, Casco Central.",
      "city": "Puerto La Cruz",
      "region": "Anzoategui",
      "latitude": "10.219173788630684",
      "longitude": "-64.6369300977821",
      "zip": "6023"
    },
    {
      "name": "222. El Tigre",
      "address": "Av. Rotaria, Sector Campo Oficina",
      "city": "El Tigre",
      "region": "Estado Anzoátegui",
      "latitude": "8.87909316308627",
      "longitude": "-64.24809340565872",
      "zip": "6050"
    },
    {
      "name": "121. MERCABAR",
      "address": "Zona III. ENTRE AV LAS INDUSTRIAS GIFFONI",
      "city": "Barquisimeto",
      "region": "Estado Lara",
      "latitude": "10.068973318358964",
      "longitude": "-69.3897581236062",
      "zip": "3001"
    },
    {
      "name": "115. Duaca",
      "address": "Carrera 7 entre calles 15 y 16 mucipio Crespo.",
      "city": "Duaca",
      "region": "Estado Lara",
      "latitude": "10.287340440727412",
      "longitude": "-69.15763875971653",
      "zip": "3034"
    },
    {
      "name": "034. El Tocuyo",
      "address": "Esquina Calle 15 entre av. Fraternidad y Av. Lisandro Alvarado municipio Moran.",
      "city": "El Tocuyo",
      "region": "Estado Lara",
      "latitude": "9.785732090506368",
      "longitude": "-69.79490879040559",
      "zip": "3018"
    },
    {
      "name": "194. Siquisique",
      "address": "Calle 7 entre Av. Urdaneta y Av. Comercio.",
      "city": "Siquisique",
      "region": "Estado Lara",
      "latitude": "10.570453944988316",
      "longitude": "-69.70263715240576",
      "zip": "3131"
    },
    {
      "name": "108. Carora",
      "address": "Calle Monagas entre Bolívar y Torres. Centro Comercial Don Cherra. locales 12. 13. 14.",
      "city": "Carora",
      "region": "Estado Lara",
      "latitude": "10.180649248571912",
      "longitude": "-70.08531601923836",
      "zip": "3050"
    },
    {
      "name": "112. Quibor",
      "address": "Estacion de Servicio Shell via Cubiro Sector la Piolin. Parroquia Coronel Mariano Peraza.",
      "city": "Quibor",
      "region": "Estado Lara",
      "latitude": "9.929017418942788",
      "longitude": "-69.61097731197262",
      "zip": "3061"
    },
    {
      "name": "64. Estadio Metropolitano",
      "address": "Municipio Libertador. Parroquia Juan Rodríguez Suarez. Sector Zumba. Estadio Metropolitano 5 Aguilas Blancas Tribuna Oeste.",
      "city": "",
      "region": "",
      "latitude": "8.555088571239574",
      "longitude": "-71.21861856157791",
      "zip": "5115"
    },
    {
      "name": "163. Santa Cruz de Mora",
      "address": "Av. Antonio Pinto Salinas al ladode PDVAL. Parroquia Santa Cruz de Mora. Municipio Antonio Pinto Salinas.",
      "city": "Santa Cruz de Mora",
      "region": "",
      "latitude": "8.397816809094794",
      "longitude": "-71.64084377322214",
      "zip": "5142"
    },
    {
      "name": "98. Pueblo Llano",
      "address": "Casa de la cultara (ATENEO) Calle Ayaucucho. Pueblo Llano.",
      "city": "Pueblo Llano",
      "region": "",
      "latitude": "8.916473548840768",
      "longitude": "-70.66007079484649",
      "zip": "5152"
    },
    {
      "name": "89. Campo Elias",
      "address": "Av. Bolívar . Edf. Municipal.Municipio Campo Elias. Parroquia Matriz.",
      "city": "",
      "region": "",
      "latitude": "8.546534292138476",
      "longitude": "-71.24274106441781",
      "zip": "5111"
    },
    {
      "name": "104. Santa Elena de Arenales",
      "address": "Municipio Obispo Ramos de Lora. Sector Santa Elena Centro Calle Cristo Rey Frente a la Plaza Bol ívar.",
      "city": "Santa Elena de Arenales",
      "region": "",
      "latitude": "8.822234327401963",
      "longitude": "-71.46625981924761",
      "zip": "5146"
    },
    {
      "name": "76. Tovar",
      "address": "Sector Las Acacias Calle Principal casa comunal Juan Ozuna Paredes.",
      "city": "Tovar",
      "region": "",
      "latitude": "8.337236200749794",
      "longitude": "-71.7479374462364",
      "zip": "5143"
    },
    {
      "name": "179. El Vigia",
      "address": "Av. 15 Sector BarRío Bolívar. Centro Comercial Mayorca. PB Local 1 y 2 antiguo edificio Banco Progreso.",
      "city": "El Vigia",
      "region": "",
      "latitude": "8.614295829561021",
      "longitude": "-71.65736544467836",
      "zip": "5145"
    },
    {
      "name": "004. Los Ruices",
      "address": "Av. Diego CisneroCentro Empresarial Los Ruices PB. LOCAL B",
      "city": "Caracas",
      "region": "Estado Miranda",
      "latitude": "10.487959533516172",
      "longitude": "-66.82982327690729",
      "zip": "1071"
    },
    {
      "name": "024. Los Teques I – Super Lider",
      "address": "Carretera Panamericana KM21. Centro Comercial Super Lider. LOS TEQUES.",
      "city": "Los Teques",
      "region": "Estado Miranda",
      "latitude": "10.350707360257944",
      "longitude": "-67.01451422117077",
      "zip": "1073"
    },
    {
      "name": "111. Guarenas",
      "address": "",
      "city": "Guarenas",
      "region": "Estado Miranda",
      "latitude": "10.468819396065006",
      "longitude": "-66.610005546222",
      "zip": "1073"
    },
    {
      "name": "097. Higuerote",
      "address": "",
      "city": "Higuerote",
      "region": "Estado Miranda",
      "latitude": "10.477893412257963",
      "longitude": "-66.09975011193353",
      "zip": "1231"
    },
    {
      "name": "131. San José de Barlovento",
      "address": "Esquina Calle Junincon Malabar. San José de Barlovento.",
      "city": "Río Chico",
      "region": "Estado Miranda",
      "latitude": "10.303187262382913",
      "longitude": "-65.9947475615661",
      "zip": "1235"
    },
    {
      "name": "047. Caucagua",
      "address": "",
      "city": "Caucagua",
      "region": "Estado Miranda",
      "latitude": "10.291195783310137",
      "longitude": "-66.37687586156609",
      "zip": "1246"
    },
    {
      "name": "033. Ocumare del Tuy",
      "address": "Ocumare del Tuy Calle Urdaneta. Residencia Parque Central. LOCAL 29",
      "city": "Ocumare del Tuy",
      "region": "Estado Miranda",
      "latitude": "10.120470642309794",
      "longitude": "-66.77329029040322",
      "zip": "1209"
    },
    {
      "name": "091. Santa Teresa del Tuy",
      "address": "",
      "city": "Santa Teresa del Tuy",
      "region": "Estado Miranda",
      "latitude": "10.232993171641168",
      "longitude": "-66.66891887505975",
      "zip": "1215"
    },
    {
      "name": "095. San Francisco de Yare",
      "address": "",
      "city": "San Francisco de Yare",
      "region": "Estado Miranda",
      "latitude": "10.17877458374027",
      "longitude": "-66.7459059696262",
      "zip": "1212"
    },
    {
      "name": "050. Los Teques II – Guaicaipuro",
      "address": "Calle Carabobo con Boyaca. Edf. Centro Maracaibo. Frente del Hotal El Gran Casino.",
      "city": "Los Teques",
      "region": "Estado Miranda",
      "latitude": "10.342748393974551",
      "longitude": "-67.03952951484973",
      "zip": "1201"
    },
    {
      "name": "075. IFE – Cúa",
      "address": "Estacion Ferrocarriles Ezequiel Zamora. Oficina 04.",
      "city": "Cúa",
      "region": "Estado Miranda",
      "latitude": "10.154040788273367",
      "longitude": "-66.8745453750603",
      "zip": "1211"
    },
    {
      "name": "003. La Trinidad",
      "address": "Calle San Rafael. CC Plaza La Trinidad. Caracas 1080. Miranda.",
      "city": "Caracas",
      "region": "Estado Miranda",
      "latitude": "10.442065954659157",
      "longitude": "-66.86547490204417",
      "zip": "1080"
    },
    {
      "name": "055. Las Mercedes",
      "address": "Edif. La Hacienda. Av. Veracruz. Las Mercedes. Caracas 1080. Miranda.",
      "city": "Caracas",
      "region": "Estado Miranda",
      "latitude": "10.478941637562638",
      "longitude": "-66.85755963087938",
      "zip": "1080"
    },
    {
      "name": "056. La Urbina",
      "address": "Calle 4. Cruce con Calle 13. La Urbina. Caracas.",
      "city": "Caracas",
      "region": "Estado Miranda",
      "latitude": "10.485244733047432",
      "longitude": "-66.80800293087941",
      "zip": "1073"
    },
    {
      "name": "074. IFE – Charallave Sur",
      "address": "Estacion Terminal de Ferrocarril Generalisimo Francisco de Miranda. Municipio Cristóbal Rojas.",
      "city": "Charallave",
      "region": "Estado Miranda",
      "latitude": "10.237203538076072",
      "longitude": "-66.85691553273097",
      "zip": "1210"
    },
    {
      "name": "31. Maturín",
      "address": "Av. José Tadeo Monagas. Edif. SAIME. Entrada del Aeropurto. Parroquia Las Cocuiza. Municipio Maturín.",
      "city": "Maturín",
      "region": "Estado Monagas",
      "latitude": "9.751748361624305",
      "longitude": "-63.15709615107922",
      "zip": "6201"
    },
    {
      "name": "138. Punta de Mata",
      "address": "Final Av. Bol ívar. al lado del destacamento 512 de GNB. Municipio Ezequiel Zamora. Parroquia Punta de Mata.",
      "city": "Punta de Mata",
      "region": "Estado Monagas",
      "latitude": "9.691879432507049",
      "longitude": "-63.62032885692116",
      "zip": "6217"
    },
    {
      "name": "088. Boca del Río",
      "address": "",
      "city": "Margarita",
      "region": "Estado Nueva Esparta",
      "latitude": "10.951577417117644",
      "longitude": "-64.18498498034344",
      "zip": "6304"
    },
    {
      "name": "164. Isla de Coche",
      "address": "Calle Independencia Sector Tumba Onda Cruce Con Callejon Via El Progreso.",
      "city": "Isla de Coche",
      "region": "Estado Nueva Esparta",
      "latitude": "10.780516203131336",
      "longitude": "-63.99821322324059",
      "zip": "6321"
    },
    {
      "name": "202. Juan Griego",
      "address": "Av. 3 De Mayo. A 300Mtrs Del Terminal De Pasajeros. Juan Griego Municipio Marcano",
      "city": "Margarita",
      "region": "Estado Nueva Esparta",
      "latitude": "11.081842911237878",
      "longitude": "-63.96806483809276",
      "zip": "6309"
    },
    {
      "name": "205. El Espinal",
      "address": "",
      "city": "Margarita",
      "region": "Estado Nueva Esparta",
      "latitude": "10.964515791092403",
      "longitude": "-63.98046139994139",
      "zip": "6301"
    },
    {
      "name": "123. Fente Porlamar",
      "address": "Av 4 De Mayo. Centro Comercial Galeria Fente. Piso 1. Locales G11-G12.",
      "city": "Margarita",
      "region": "Estado Nueva Esparta",
      "latitude": "10.966883357119494",
      "longitude": "-63.84070142020747",
      "zip": "6301"
    }
  ],
  "media_files": [
    {
      "title": "1_5028498992342763601",
      "url": "https://www.saime.gob.ve/wp-content/uploads/2025/12/1_5028498992342763601.png",
      "mime_type": "image/png",
      "date": "2025-12-30"
    },
    {
      "title": "pots navideño",
      "url": "https://www.saime.gob.ve/wp-content/uploads/2025/12/pots-navideno.png",
      "mime_type": "image/png",
      "date": "2025-12-23"
    },
    {
      "title": "ChatGPT Image 22 dic 2025, 11_32_44 a.m.",
      "url": "https://www.saime.gob.ve/wp-content/uploads/2025/12/ChatGPT-Image-22-dic-2025-11_32_44-a.m.png",
      "mime_type": "image/png",
      "date": "2025-12-22"
    },
    {
      "title": "photo_5055414354550917923_y-768&#215;1024",
      "url": "https://www.saime.gob.ve/wp-content/uploads/2025/12/photo_5055414354550917923_y-768x1024-1-e1766177184676.jpg",
      "mime_type": "image/jpeg",
      "date": "2025-12-19"
    },
    {
      "title": "IMG_20251219_092143_283-768&#215;417",
      "url": "https://www.saime.gob.ve/wp-content/uploads/2025/12/IMG_20251219_092143_283-768x417-1.jpg",
      "mime_type": "image/jpeg",
      "date": "2025-12-19"
    },
    {
      "title": "notificacion",
      "url": "https://www.saime.gob.ve/wp-content/uploads/2025/12/notificacion.png",
      "mime_type": "image/png",
      "date": "2025-12-17"
    },
    {
      "title": "3",
      "url": "https://www.saime.gob.ve/wp-content/uploads/2025/12/3-e1765981079141.jpg",
      "mime_type": "image/jpeg",
      "date": "2025-12-17"
    },
    {
      "title": "2",
      "url": "https://www.saime.gob.ve/wp-content/uploads/2025/12/2.jpg",
      "mime_type": "image/jpeg",
      "date": "2025-12-17"
    },
    {
      "title": "1",
      "url": "https://www.saime.gob.ve/wp-content/uploads/2025/12/1.jpg",
      "mime_type": "image/jpeg",
      "date": "2025-12-17"
    },
    {
      "title": "1000073736",
      "url": "https://www.saime.gob.ve/wp-content/uploads/2025/12/1000073736.png",
      "mime_type": "image/png",
      "date": "2025-12-01"
    },
    {
      "title": "admin-ajax",
      "url": "https://www.saime.gob.ve/wp-content/uploads/2025/11/admin-ajax.jpg",
      "mime_type": "image/jpeg",
      "date": "2025-11-28"
    },
    {
      "title": "photo_4989991703301262126_y-1024&#215;1024",
      "url": "https://www.saime.gob.ve/wp-content/uploads/2025/11/photo_4989991703301262126_y-1024x1024-2.jpg",
      "mime_type": "image/jpeg",
      "date": "2025-11-27"
    },
    {
      "title": "photo_4989991703301262126_y-1024&#215;1024",
      "url": "https://www.saime.gob.ve/wp-content/uploads/2025/11/photo_4989991703301262126_y-1024x1024-1.jpg",
      "mime_type": "image/jpeg",
      "date": "2025-11-27"
    },
    {
      "title": "vero-1024&#215;684",
      "url": "https://www.saime.gob.ve/wp-content/uploads/2025/11/vero-1024x684-1.jpg",
      "mime_type": "image/jpeg",
      "date": "2025-11-27"
    },
    {
      "title": "ddddddd",
      "url": "https://www.saime.gob.ve/wp-content/uploads/2025/11/ddddddd.png",
      "mime_type": "image/png",
      "date": "2025-11-27"
    },
    {
      "title": "Imagen de WhatsApp 2025-11-24 a las 14.53.15_bab5c11b",
      "url": "https://www.saime.gob.ve/wp-content/uploads/2025/11/Imagen-de-WhatsApp-2025-11-24-a-las-14.53.15_bab5c11b.jpg",
      "mime_type": "image/jpeg",
      "date": "2025-11-24"
    },
    {
      "title": "IMG_20251118_163133_464",
      "url": "https://www.saime.gob.ve/wp-content/uploads/2025/11/IMG_20251118_163133_464-1.jpg",
      "mime_type": "image/jpeg",
      "date": "2025-11-20"
    },
    {
      "title": "IMG_20251118_163133_464",
      "url": "https://www.saime.gob.ve/wp-content/uploads/2025/11/IMG_20251118_163133_464.jpg",
      "mime_type": "image/jpeg",
      "date": "2025-11-20"
    },
    {
      "title": "photo_4949456549285923623_y",
      "url": "https://www.saime.gob.ve/wp-content/uploads/2025/11/photo_4949456549285923623_y.jpg",
      "mime_type": "image/jpeg",
      "date": "2025-11-20"
    },
    {
      "title": "plaza",
      "url": "https://www.saime.gob.ve/wp-content/uploads/2025/11/plaza.jpg",
      "mime_type": "image/jpeg",
      "date": "2025-11-20"
    },
    {
      "title": "Imagen",
      "url": "https://www.saime.gob.ve/wp-content/uploads/2025/11/Imagen.png",
      "mime_type": "image/png",
      "date": "2025-11-19"
    },
    {
      "title": "WhatsApp Image 2025-11-18 at 8.20.22 AM",
      "url": "https://www.saime.gob.ve/wp-content/uploads/2025/11/WhatsApp-Image-2025-11-18-at-8.20.22-AM.jpeg",
      "mime_type": "image/jpeg",
      "date": "2025-11-18"
    },
    {
      "title": "WhatsApp Image 2025-11-14 at 4.41.47 PM",
      "url": "https://www.saime.gob.ve/wp-content/uploads/2025/11/WhatsApp-Image-2025-11-14-at-4.41.47-PM.jpeg",
      "mime_type": "image/jpeg",
      "date": "2025-11-14"
    },
    {
      "title": "noticia",
      "url": "https://www.saime.gob.ve/wp-content/uploads/2025/11/noticia-6.jpg",
      "mime_type": "image/jpeg",
      "date": "2025-11-14"
    },
    {
      "title": "noticia",
      "url": "https://www.saime.gob.ve/wp-content/uploads/2025/11/noticia-5.jpg",
      "mime_type": "image/jpeg",
      "date": "2025-11-14"
    },
    {
      "title": "noticia",
      "url": "https://www.saime.gob.ve/wp-content/uploads/2025/11/noticia-4.jpg",
      "mime_type": "image/jpeg",
      "date": "2025-11-14"
    },
    {
      "title": "noticia",
      "url": "https://www.saime.gob.ve/wp-content/uploads/2025/11/noticia.jpg",
      "mime_type": "image/jpeg",
      "date": "2025-11-14"
    },
    {
      "title": "pescadores-guaira",
      "url": "https://www.saime.gob.ve/wp-content/uploads/2025/11/pescadores-guaira.png",
      "mime_type": "image/png",
      "date": "2025-11-12"
    },
    {
      "title": "WhatsApp Image 2025-11-11 at 2.16.49 PM",
      "url": "https://www.saime.gob.ve/wp-content/uploads/2025/11/WhatsApp-Image-2025-11-11-at-2.16.49-PM.jpeg",
      "mime_type": "image/jpeg",
      "date": "2025-11-11"
    },
    {
      "title": "WhatsApp Image 2025-11-11 at 8.58.02 AM",
      "url": "https://www.saime.gob.ve/wp-content/uploads/2025/11/WhatsApp-Image-2025-11-11-at-8.58.02-AM.jpeg",
      "mime_type": "image/jpeg",
      "date": "2025-11-11"
    },
    {
      "title": "WhatsApp Image 2025-11-10 at 4.17.12 PM",
      "url": "https://www.saime.gob.ve/wp-content/uploads/2025/11/WhatsApp-Image-2025-11-10-at-4.17.12-PM.jpeg",
      "mime_type": "image/jpeg",
      "date": "2025-11-11"
    },
    {
      "title": "IMG-20251110-WA0015",
      "url": "https://www.saime.gob.ve/wp-content/uploads/2025/11/IMG-20251110-WA0015.jpg",
      "mime_type": "image/jpeg",
      "date": "2025-11-10"
    },
    {
      "title": "IMG-20251110-WA0014",
      "url": "https://www.saime.gob.ve/wp-content/uploads/2025/11/IMG-20251110-WA0014.jpg",
      "mime_type": "image/jpeg",
      "date": "2025-11-10"
    },
    {
      "title": "noticia 3",
      "url": "https://www.saime.gob.ve/wp-content/uploads/2025/11/noticia-3.jpg",
      "mime_type": "image/jpeg",
      "date": "2025-11-06"
    },
    {
      "title": "noticia 2",
      "url": "https://www.saime.gob.ve/wp-content/uploads/2025/11/noticia-2.jpg",
      "mime_type": "image/jpeg",
      "date": "2025-11-06"
    },
    {
      "title": "noticia 1",
      "url": "https://www.saime.gob.ve/wp-content/uploads/2025/11/noticia-1.jpg",
      "mime_type": "image/jpeg",
      "date": "2025-11-06"
    },
    {
      "title": "Screenshot_20251105_164846_Gallery",
      "url": "https://www.saime.gob.ve/wp-content/uploads/2025/11/Screenshot_20251105_164846_Gallery-scaled.jpg",
      "mime_type": "image/jpeg",
      "date": "2025-11-05"
    },
    {
      "title": "IMG_20251105_163401_290",
      "url": "https://www.saime.gob.ve/wp-content/uploads/2025/11/IMG_20251105_163401_290.jpg",
      "mime_type": "image/jpeg",
      "date": "2025-11-05"
    },
    {
      "title": "mmexport1762374220144",
      "url": "https://www.saime.gob.ve/wp-content/uploads/2025/11/mmexport1762374220144.jpg",
      "mime_type": "image/jpeg",
      "date": "2025-11-05"
    },
    {
      "title": "Recurso 14 (2)",
      "url": "https://www.saime.gob.ve/wp-content/uploads/2025/11/Recurso-14-2-scaled.png",
      "mime_type": "image/png",
      "date": "2025-11-03"
    },
    {
      "title": "Recurso 14 (1)",
      "url": "https://www.saime.gob.ve/wp-content/uploads/2025/11/Recurso-14-1-scaled.png",
      "mime_type": "image/png",
      "date": "2025-11-03"
    },
    {
      "title": "saimito_hola",
      "url": "https://www.saime.gob.ve/wp-content/uploads/2025/11/saimito_hola.jpg",
      "mime_type": "image/jpeg",
      "date": "2025-11-02"
    },
    {
      "title": "Recurso 133 (1)",
      "url": "https://www.saime.gob.ve/wp-content/uploads/2025/10/Recurso-133-1.png",
      "mime_type": "image/png",
      "date": "2025-10-31"
    },
    {
      "title": "Recurso 132 (1)",
      "url": "https://www.saime.gob.ve/wp-content/uploads/2025/10/Recurso-132-1.png",
      "mime_type": "image/png",
      "date": "2025-10-31"
    },
    {
      "title": "Recurso 134 (1)",
      "url": "https://www.saime.gob.ve/wp-content/uploads/2025/10/Recurso-134-1.png",
      "mime_type": "image/png",
      "date": "2025-10-31"
    },
    {
      "title": "Recurso 135 (1)",
      "url": "https://www.saime.gob.ve/wp-content/uploads/2025/10/Recurso-135-1.png",
      "mime_type": "image/png",
      "date": "2025-10-31"
    },
    {
      "title": "4909176254334962511",
      "url": "https://www.saime.gob.ve/wp-content/uploads/2025/10/4909176254334962511.jpg",
      "mime_type": "image/jpeg",
      "date": "2025-10-31"
    },
    {
      "title": "4909176254334962510",
      "url": "https://www.saime.gob.ve/wp-content/uploads/2025/10/4909176254334962510.jpg",
      "mime_type": "image/jpeg",
      "date": "2025-10-31"
    },
    {
      "title": "Recurso 129",
      "url": "https://www.saime.gob.ve/wp-content/uploads/2025/10/Recurso-129.png",
      "mime_type": "image/png",
      "date": "2025-10-31"
    },
    {
      "title": "Recurso 130",
      "url": "https://www.saime.gob.ve/wp-content/uploads/2025/10/Recurso-130.png",
      "mime_type": "image/png",
      "date": "2025-10-31"
    },
    {
      "title": "Recurso 131",
      "url": "https://www.saime.gob.ve/wp-content/uploads/2025/10/Recurso-131.png",
      "mime_type": "image/png",
      "date": "2025-10-31"
    },
    {
      "title": "Recurso 126",
      "url": "https://www.saime.gob.ve/wp-content/uploads/2025/10/Recurso-126.png",
      "mime_type": "image/png",
      "date": "2025-10-31"
    },
    {
      "title": "Recurso 127",
      "url": "https://www.saime.gob.ve/wp-content/uploads/2025/10/Recurso-127.png",
      "mime_type": "image/png",
      "date": "2025-10-31"
    },
    {
      "title": "Recurso 128",
      "url": "https://www.saime.gob.ve/wp-content/uploads/2025/10/Recurso-128.png",
      "mime_type": "image/png",
      "date": "2025-10-31"
    },
    {
      "title": "Recurso 57@150x",
      "url": "https://www.saime.gob.ve/wp-content/uploads/2025/10/Recurso-57@150x-scaled.png",
      "mime_type": "image/png",
      "date": "2025-10-30"
    },
    {
      "title": "Recurso 124",
      "url": "https://www.saime.gob.ve/wp-content/uploads/2025/10/Recurso-124.png",
      "mime_type": "image/png",
      "date": "2025-10-30"
    },
    {
      "title": "Recurso 125",
      "url": "https://www.saime.gob.ve/wp-content/uploads/2025/10/Recurso-125.png",
      "mime_type": "image/png",
      "date": "2025-10-30"
    },
    {
      "title": "Recurso 115",
      "url": "https://www.saime.gob.ve/wp-content/uploads/2025/10/Recurso-115.png",
      "mime_type": "image/png",
      "date": "2025-10-30"
    },
    {
      "title": "Recurso 116",
      "url": "https://www.saime.gob.ve/wp-content/uploads/2025/10/Recurso-116.png",
      "mime_type": "image/png",
      "date": "2025-10-30"
    },
    {
      "title": "Recurso 117",
      "url": "https://www.saime.gob.ve/wp-content/uploads/2025/10/Recurso-117.png",
      "mime_type": "image/png",
      "date": "2025-10-30"
    },
    {
      "title": "Recurso 118",
      "url": "https://www.saime.gob.ve/wp-content/uploads/2025/10/Recurso-118.png",
      "mime_type": "image/png",
      "date": "2025-10-30"
    },
    {
      "title": "Recurso 119",
      "url": "https://www.saime.gob.ve/wp-content/uploads/2025/10/Recurso-119.png",
      "mime_type": "image/png",
      "date": "2025-10-30"
    },
    {
      "title": "Recurso 120",
      "url": "https://www.saime.gob.ve/wp-content/uploads/2025/10/Recurso-120.png",
      "mime_type": "image/png",
      "date": "2025-10-30"
    },
    {
      "title": "Recurso 121",
      "url": "https://www.saime.gob.ve/wp-content/uploads/2025/10/Recurso-121.png",
      "mime_type": "image/png",
      "date": "2025-10-30"
    },
    {
      "title": "Recurso 122",
      "url": "https://www.saime.gob.ve/wp-content/uploads/2025/10/Recurso-122.png",
      "mime_type": "image/png",
      "date": "2025-10-30"
    },
    {
      "title": "Recurso 123",
      "url": "https://www.saime.gob.ve/wp-content/uploads/2025/10/Recurso-123.png",
      "mime_type": "image/png",
      "date": "2025-10-30"
    },
    {
      "title": "Recurso 111 (1)",
      "url": "https://www.saime.gob.ve/wp-content/uploads/2025/10/Recurso-111-1.png",
      "mime_type": "image/png",
      "date": "2025-10-30"
    },
    {
      "title": "Recurso 114",
      "url": "https://www.saime.gob.ve/wp-content/uploads/2025/10/Recurso-114.png",
      "mime_type": "image/png",
      "date": "2025-10-30"
    },
    {
      "title": "Recurso 109",
      "url": "https://www.saime.gob.ve/wp-content/uploads/2025/10/Recurso-109-1.png",
      "mime_type": "image/png",
      "date": "2025-10-30"
    },
    {
      "title": "Recurso 113",
      "url": "https://www.saime.gob.ve/wp-content/uploads/2025/10/Recurso-113.png",
      "mime_type": "image/png",
      "date": "2025-10-30"
    },
    {
      "title": "Recurso 109",
      "url": "https://www.saime.gob.ve/wp-content/uploads/2025/10/Recurso-109.png",
      "mime_type": "image/png",
      "date": "2025-10-30"
    },
    {
      "title": "Recurso 78@150x",
      "url": "https://www.saime.gob.ve/wp-content/uploads/2025/10/Recurso-78@150x.png",
      "mime_type": "image/png",
      "date": "2025-10-30"
    },
    {
      "title": "Gestión_Mesa de trabajo 1",
      "url": "https://www.saime.gob.ve/wp-content/uploads/2025/10/Gestion_Mesa-de-trabajo-1.png",
      "mime_type": "image/png",
      "date": "2025-10-30"
    },
    {
      "title": "Recurso 333 (1)",
      "url": "https://www.saime.gob.ve/wp-content/uploads/2025/10/Recurso-333-1-scaled.png",
      "mime_type": "image/png",
      "date": "2025-10-30"
    },
    {
      "title": "4904773805482380139",
      "url": "https://www.saime.gob.ve/wp-content/uploads/2025/10/4904773805482380139.jpg",
      "mime_type": "image/jpeg",
      "date": "2025-10-29"
    },
    {
      "title": "Recurso 222",
      "url": "https://www.saime.gob.ve/wp-content/uploads/2025/10/Recurso-222-scaled.png",
      "mime_type": "image/png",
      "date": "2025-10-29"
    },
    {
      "title": "Recurso 107",
      "url": "https://www.saime.gob.ve/wp-content/uploads/2025/10/Recurso-107-scaled.png",
      "mime_type": "image/png",
      "date": "2025-10-29"
    },
    {
      "title": "Organigrama SAIME",
      "url": "https://www.saime.gob.ve/wp-content/uploads/2025/10/Organigrama-SAIME.jpg",
      "mime_type": "image/jpeg",
      "date": "2025-10-29"
    },
    {
      "title": "4904674815076141984",
      "url": "https://www.saime.gob.ve/wp-content/uploads/2025/10/4904674815076141984.jpg",
      "mime_type": "image/jpeg",
      "date": "2025-10-29"
    },
    {
      "title": "4904674815076141983",
      "url": "https://www.saime.gob.ve/wp-content/uploads/2025/10/4904674815076141983.jpg",
      "mime_type": "image/jpeg",
      "date": "2025-10-29"
    },
    {
      "title": "4904674815076141982",
      "url": "https://www.saime.gob.ve/wp-content/uploads/2025/10/4904674815076141982.jpg",
      "mime_type": "image/jpeg",
      "date": "2025-10-29"
    },
    {
      "title": "Recurso 104",
      "url": "https://www.saime.gob.ve/wp-content/uploads/2025/10/Recurso-104-scaled.png",
      "mime_type": "image/png",
      "date": "2025-10-29"
    },
    {
      "title": "Recurso 7",
      "url": "https://www.saime.gob.ve/wp-content/uploads/2025/10/Recurso-7-1-scaled.png",
      "mime_type": "image/png",
      "date": "2025-10-29"
    },
    {
      "title": "Recurso 8",
      "url": "https://www.saime.gob.ve/wp-content/uploads/2025/10/Recurso-8-scaled.png",
      "mime_type": "image/png",
      "date": "2025-10-29"
    },
    {
      "title": "Recurso 888",
      "url": "https://www.saime.gob.ve/wp-content/uploads/2025/10/Recurso-888-1.png",
      "mime_type": "image/png",
      "date": "2025-10-29"
    },
    {
      "title": "Recurso 667",
      "url": "https://www.saime.gob.ve/wp-content/uploads/2025/10/Recurso-667-1.png",
      "mime_type": "image/png",
      "date": "2025-10-29"
    },
    {
      "title": "Recurso 555",
      "url": "https://www.saime.gob.ve/wp-content/uploads/2025/10/Recurso-555-1.png",
      "mime_type": "image/png",
      "date": "2025-10-29"
    },
    {
      "title": "Recurso 106",
      "url": "https://www.saime.gob.ve/wp-content/uploads/2025/10/Recurso-106-1.png",
      "mime_type": "image/png",
      "date": "2025-10-29"
    },
    {
      "title": "Recurso 105",
      "url": "https://www.saime.gob.ve/wp-content/uploads/2025/10/Recurso-105.png",
      "mime_type": "image/png",
      "date": "2025-10-29"
    },
    {
      "title": "Recurso 94",
      "url": "https://www.saime.gob.ve/wp-content/uploads/2025/10/Recurso-94-1.png",
      "mime_type": "image/png",
      "date": "2025-10-29"
    },
    {
      "title": "Recurso 89",
      "url": "https://www.saime.gob.ve/wp-content/uploads/2025/10/Recurso-89-1.png",
      "mime_type": "image/png",
      "date": "2025-10-29"
    },
    {
      "title": "Recurso 88",
      "url": "https://www.saime.gob.ve/wp-content/uploads/2025/10/Recurso-88-1.png",
      "mime_type": "image/png",
      "date": "2025-10-29"
    },
    {
      "title": "Recurso 87",
      "url": "https://www.saime.gob.ve/wp-content/uploads/2025/10/Recurso-87.png",
      "mime_type": "image/png",
      "date": "2025-10-29"
    },
    {
      "title": "Recurso 86",
      "url": "https://www.saime.gob.ve/wp-content/uploads/2025/10/Recurso-86.png",
      "mime_type": "image/png",
      "date": "2025-10-29"
    },
    {
      "title": "recurso 85",
      "url": "https://www.saime.gob.ve/wp-content/uploads/2025/10/recurso-85.png",
      "mime_type": "image/png",
      "date": "2025-10-29"
    },
    {
      "title": "recurso 84 (1)",
      "url": "https://www.saime.gob.ve/wp-content/uploads/2025/10/recurso-84-1.png",
      "mime_type": "image/png",
      "date": "2025-10-29"
    },
    {
      "title": "Recurso 77",
      "url": "https://www.saime.gob.ve/wp-content/uploads/2025/10/Recurso-77-1.png",
      "mime_type": "image/png",
      "date": "2025-10-29"
    },
    {
      "title": "Recurso 12",
      "url": "https://www.saime.gob.ve/wp-content/uploads/2025/10/Recurso-12-2.png",
      "mime_type": "image/png",
      "date": "2025-10-29"
    }
  ]
}